{
"type": "FeatureCollection",
"crs": { "type": "name", "properties": { "name": "urn:ogc:def:crs:OGC:1.3:CRS84" } },
"features": [
{ "type": "Feature", "properties": { "Country": "cn", "City": "shanghai", "Population": 14608512, "Latitude": 31.045556, "Longitude": 121.399722 }, "geometry": { "type": "Point", "coordinates": [ 121.399722, 31.045556 ] } },
{ "type": "Feature", "properties": { "Country": "br", "City": "sao paulo", "Population": 10021437, "Latitude": -23.473293, "Longitude": -46.665803 }, "geometry": { "type": "Point", "coordinates": [ -46.665803, -23.473293 ] } },
{ "type": "Feature", "properties": { "Country": "cd", "City": "kinshasa", "Population": 7787832, "Latitude": -4.3, "Longitude": 15.3 }, "geometry": { "type": "Point", "coordinates": [ 15.3, -4.3 ] } },
{ "type": "Feature", "properties": { "Country": "eg", "City": "cairo", "Population": 7734602, "Latitude": 30.05, "Longitude": 31.25 }, "geometry": { "type": "Point", "coordinates": [ 31.25, 30.05 ] } },
{ "type": "Feature", "properties": { "Country": "cn", "City": "peking", "Population": 7480601, "Latitude": 39.928889, "Longitude": 116.388333 }, "geometry": { "type": "Point", "coordinates": [ 116.388333, 39.928889 ] } },
{ "type": "Feature", "properties": { "Country": "gb", "City": "london", "Population": 7421228, "Latitude": 51.514125, "Longitude": -0.093689 }, "geometry": { "type": "Point", "coordinates": [ -0.093689, 51.514125 ] } },
{ "type": "Feature", "properties": { "Country": "co", "City": "bogota", "Population": 7102602, "Latitude": 4.649178, "Longitude": -74.062827 }, "geometry": { "type": "Point", "coordinates": [ -74.062827, 4.649178 ] } },
{ "type": "Feature", "properties": { "Country": "bd", "City": "dhaka", "Population": 6493177, "Latitude": 23.7230556, "Longitude": 90.4086111 }, "geometry": { "type": "Point", "coordinates": [ 90.4086111, 23.7230556 ] } },
{ "type": "Feature", "properties": { "Country": "br", "City": "rio de janeiro", "Population": 6023742, "Latitude": -22.9, "Longitude": -43.233333 }, "geometry": { "type": "Point", "coordinates": [ -43.233333, -22.9 ] } },
{ "type": "Feature", "properties": { "Country": "cl", "City": "santiago", "Population": 4837248, "Latitude": -33.45, "Longitude": -70.666667 }, "geometry": { "type": "Point", "coordinates": [ -70.666667, -33.45 ] } },
{ "type": "Feature", "properties": { "Country": "ca", "City": "toronto", "Population": 4612187, "Latitude": 43.666667, "Longitude": -79.416667 }, "geometry": { "type": "Point", "coordinates": [ -79.416667, 43.666667 ] } },
{ "type": "Feature", "properties": { "Country": "au", "City": "sydney", "Population": 4394585, "Latitude": -33.861481, "Longitude": 151.205475 }, "geometry": { "type": "Point", "coordinates": [ 151.205475, -33.861481 ] } },
{ "type": "Feature", "properties": { "Country": "cn", "City": "wuhan", "Population": 4184206, "Latitude": 30.580125, "Longitude": 114.273405 }, "geometry": { "type": "Point", "coordinates": [ 114.273405, 30.580125 ] } },
{ "type": "Feature", "properties": { "Country": "cn", "City": "chongqing", "Population": 3967028, "Latitude": 29.562778, "Longitude": 106.552778 }, "geometry": { "type": "Point", "coordinates": [ 106.552778, 29.562778 ] } },
{ "type": "Feature", "properties": { "Country": "eg", "City": " alexandria", "Population": 3811512, "Latitude": 31.1980556, "Longitude": 29.9191667 }, "geometry": { "type": "Point", "coordinates": [ 29.9191667, 31.1980556 ] } },
{ "type": "Feature", "properties": { "Country": "eg", "City": "cairo", "Population": 7734602, "Latitude": 30.05, "Longitude": 31.25 }, "geometry": { "type": "Point", "coordinates": [ 31.25, 30.05 ] } }
]
}
